[
    {
        "id": "58d8f67f93bc1900c45eae61",
        "code": "Karawang",
        "name": "Karawang",
        "type": "CITY",
        "locator": {
            "latitude": -6.275652793422456,
            "longitude": 107.36231911790293
        },
        "city": null,
        "timezone": 7,
        "popular": false,
        "precedence": 0
    },
    {
        "id": "5a977e7fb2b78c6734f17f97",
        "code": "Asahan",
        "name": "Asahan",
        "type": "CITY",
        "locator": {
            "latitude": 2.8475289,
            "longitude": 99.2531382
        },
        "city": null,
        "timezone": 7,
        "popular": false,
        "precedence": 0
    },
    {
        "id": "5a977e7fb2b78c6734f17f47",
        "code": "Bandung",
        "name": "Bandung",
        "type": "CITY",
        "locator": {
            "latitude": -6.917464,
            "longitude": 107.619123
        },
        "city": null,
        "timezone": 7,
        "popular": true,
        "precedence": 0
    },
    {
        "id": "5a977e7fb2b78c6734f17f48",
        "code": "Banjar",
        "name": "Banjar",
        "type": "CITY",
        "locator": {
            "latitude": -3.320023,
            "longitude": 114.999146
        },
        "city": null,
        "timezone": 7,
        "popular": false,
        "precedence": 0
    },
    {
        "id": "5a977e7fb2b78c6734f17f49",
        "code": "Banyumas",
        "name": "Banyumas",
        "type": "CITY",
        "locator": {
            "latitude": -7.483213,
            "longitude": 109.140438
        },
        "city": null,
        "timezone": 7,
        "popular": false,
        "precedence": 0
    },
    {
        "id": "5a977e7fb2b78c6734f17f4a",
        "code": "Banyuwangi",
        "name": "Banyuwangi",
        "type": "CITY",
        "locator": {
            "latitude": -8.219094,
            "longitude": 114.369142
        },
        "city": null,
        "timezone": 7,
        "popular": false,
        "precedence": 0
    },
    {
        "id": "5a977e7fb2b78c6734f17f4b",
        "code": "Batang",
        "name": "Batang",
        "type": "CITY",
        "locator": {
            "latitude": -6.908045,
            "longitude": 109.73268
        },
        "city": null,
        "timezone": 7,
        "popular": false,
        "precedence": 0
    },
    {
        "id": "5a977e7fb2b78c6734f17f98",
        "code": "Batu Bara",
        "name": "Batu Bara",
        "type": "CITY",
        "locator": {
            "latitude": 3.2307912,
            "longitude": 99.3399155
        },
        "city": null,
        "timezone": 7,
        "popular": false,
        "precedence": 0
    },
    {
        "id": "5a977e7fb2b78c6734f17f4c",
        "code": "Baturaja",
        "name": "Baturaja",
        "type": "CITY",
        "locator": {
            "latitude": -5.040265,
            "longitude": 103.839016
        },
        "city": null,
        "timezone": 7,
        "popular": false,
        "precedence": 0
    },
    {
        "id": "5a977e7fb2b78c6734f17f4d",
        "code": "Bekasi",
        "name": "Bekasi",
        "type": "CITY",
        "locator": {
            "latitude": -6.23827,
            "longitude": 106.975573
        },
        "city": null,
        "timezone": 7,
        "popular": false,
        "precedence": 0
    },
    {
        "id": "5a977e7fb2b78c6734f17f4e",
        "code": "Binjai",
        "name": "Binjai",
        "type": "CITY",
        "locator": {
            "latitude": 3.613548,
            "longitude": 98.502529
        },
        "city": null,
        "timezone": 7,
        "popular": false,
        "precedence": 0
    },
    {
        "id": "5a977e7fb2b78c6734f17f4f",
        "code": "Blitar",
        "name": "Blitar",
        "type": "CITY",
        "locator": {
            "latitude": -8.095463,
            "longitude": 112.160906
        },
        "city": null,
        "timezone": 7,
        "popular": false,
        "precedence": 0
    },
    {
        "id": "5a977e7fb2b78c6734f17f50",
        "code": "Blora",
        "name": "Blora",
        "type": "CITY",
        "locator": {
            "latitude": 7.0122,
            "longitude": 111.3799
        },
        "city": null,
        "timezone": 7,
        "popular": false,
        "precedence": 0
    },
    {
        "id": "5a977e7fb2b78c6734f17f51",
        "code": "Bogor",
        "name": "Bogor",
        "type": "CITY",
        "locator": {
            "latitude": -6.597147,
            "longitude": 106.806039
        },
        "city": null,
        "timezone": 7,
        "popular": false,
        "precedence": 0
    },
    {
        "id": "5a977e7fb2b78c6734f17f52",
        "code": "Bojonegoro",
        "name": "Bojonegoro",
        "type": "CITY",
        "locator": {
            "latitude": -7.317463,
            "longitude": 111.761466
        },
        "city": null,
        "timezone": 7,
        "popular": false,
        "precedence": 0
    },
    {
        "id": "5a977e7fb2b78c6734f17f53",
        "code": "Boyolali",
        "name": "Boyolali",
        "type": "CITY",
        "locator": {
            "latitude": -7.431777,
            "longitude": 110.688354
        },
        "city": null,
        "timezone": 7,
        "popular": false,
        "precedence": 0
    },
    {
        "id": "5a977e7fb2b78c6734f17f54",
        "code": "Brebes",
        "name": "Brebes",
        "type": "CITY",
        "locator": {
            "latitude": -6.856421,
            "longitude": 109.039376
        },
        "city": null,
        "timezone": 7,
        "popular": false,
        "precedence": 0
    },
    {
        "id": "5a977e7fb2b78c6734f17f55",
        "code": "Ciamis",
        "name": "Ciamis",
        "type": "CITY",
        "locator": {
            "latitude": -7.329868,
            "longitude": 108.332255
        },
        "city": null,
        "timezone": 7,
        "popular": false,
        "precedence": 0
    },
    {
        "id": "5a977e7fb2b78c6734f17f56",
        "code": "Cianjur",
        "name": "Cianjur",
        "type": "CITY",
        "locator": {
            "latitude": -6.81463,
            "longitude": 107.131829
        },
        "city": null,
        "timezone": 7,
        "popular": false,
        "precedence": 0
    },
    {
        "id": "5a977e7fb2b78c6734f17f57",
        "code": "Cikampek",
        "name": "Cikampek",
        "type": "CITY",
        "locator": {
            "latitude": -6.395874,
            "longitude": 107.438111
        },
        "city": null,
        "timezone": 7,
        "popular": false,
        "precedence": 0
    },
    {
        "id": "5a977e7fb2b78c6734f17f58",
        "code": "Cilacap",
        "name": "Cilacap",
        "type": "CITY",
        "locator": {
            "latitude": -7.698299,
            "longitude": 109.023521
        },
        "city": null,
        "timezone": 7,
        "popular": false,
        "precedence": 0
    },
    {
        "id": "5a977e7fb2b78c6734f17f59",
        "code": "Cilegon",
        "name": "Cilegon",
        "type": "CITY",
        "locator": {
            "latitude": -6.002534,
            "longitude": 106.01112
        },
        "city": null,
        "timezone": 7,
        "popular": false,
        "precedence": 0
    },
    {
        "id": "5a977e7fb2b78c6734f17f5a",
        "code": "Cirebon",
        "name": "Cirebon",
        "type": "CITY",
        "locator": {
            "latitude": -6.732023,
            "longitude": 108.552316
        },
        "city": null,
        "timezone": 7,
        "popular": false,
        "precedence": 0
    },
    {
        "id": "5a977e7fb2b78c6734f17f5b",
        "code": "Deli Serdang",
        "name": "Deli Serdang",
        "type": "CITY",
        "locator": {
            "latitude": 3.42018,
            "longitude": 98.704075
        },
        "city": null,
        "timezone": 7,
        "popular": false,
        "precedence": 0
    },
    {
        "id": "5a977e7fb2b78c6734f17f5c",
        "code": "Demak",
        "name": "Demak",
        "type": "CITY",
        "locator": {
            "latitude": -6.892161,
            "longitude": 110.63775
        },
        "city": null,
        "timezone": 7,
        "popular": false,
        "precedence": 0
    },
    {
        "id": "5a977e7fb2b78c6734f17f5d",
        "code": "Denpasar",
        "name": "Denpasar",
        "type": "CITY",
        "locator": {
            "latitude": -8.670458,
            "longitude": 115.212629
        },
        "city": null,
        "timezone": 7,
        "popular": false,
        "precedence": 0
    },
    {
        "id": "5a977e7fb2b78c6734f17f5e",
        "code": "Garut",
        "name": "Garut",
        "type": "CITY",
        "locator": {
            "latitude": -7.251216,
            "longitude": 107.923556
        },
        "city": null,
        "timezone": 7,
        "popular": false,
        "precedence": 0
    },
    {
        "id": "5a977e7fb2b78c6734f17f5f",
        "code": "Gombong",
        "name": "Gombong",
        "type": "CITY",
        "locator": {
            "latitude": -7.605282,
            "longitude": 109.515156
        },
        "city": null,
        "timezone": 7,
        "popular": false,
        "precedence": 0
    },
    {
        "id": "5a977e7fb2b78c6734f17f60",
        "code": "Grobogan",
        "name": "Grobogan",
        "type": "CITY",
        "locator": {
            "latitude": -7.154167,
            "longitude": 110.950664
        },
        "city": null,
        "timezone": 7,
        "popular": false,
        "precedence": 0
    },
    {
        "id": "5a977e7fb2b78c6734f17f61",
        "code": "Indramayu",
        "name": "Indramayu",
        "type": "CITY",
        "locator": {
            "latitude": -6.33731,
            "longitude": 108.325833
        },
        "city": null,
        "timezone": 7,
        "popular": false,
        "precedence": 0
    },
    {
        "id": "5a977e7fb2b78c6734f17f62",
        "code": "Jakarta",
        "name": "Jakarta",
        "type": "CITY",
        "locator": {
            "latitude": -6.174465,
            "longitude": 106.822745
        },
        "city": null,
        "timezone": 7,
        "popular": true,
        "precedence": 0
    },
    {
        "id": "5a977e7fb2b78c6734f17f63",
        "code": "Jatibarang",
        "name": "Jatibarang",
        "type": "CITY",
        "locator": {
            "latitude": -6.435871,
            "longitude": 108.314866
        },
        "city": null,
        "timezone": 7,
        "popular": false,
        "precedence": 0
    },
    {
        "id": "5a977e7fb2b78c6734f17f64",
        "code": "Jember",
        "name": "Jember",
        "type": "CITY",
        "locator": {
            "latitude": -8.173312,
            "longitude": 113.700931
        },
        "city": null,
        "timezone": 7,
        "popular": false,
        "precedence": 0
    },
    {
        "id": "5a977e7fb2b78c6734f17f65",
        "code": "Jombang",
        "name": "Jombang",
        "type": "CITY",
        "locator": {
            "latitude": -7.574087,
            "longitude": 112.28609
        },
        "city": null,
        "timezone": 7,
        "popular": false,
        "precedence": 0
    },
    {
        "id": "5a977e7fb2b78c6734f17f66",
        "code": "Kebumen",
        "name": "Kebumen",
        "type": "CITY",
        "locator": {
            "latitude": -7.668056,
            "longitude": 109.652457
        },
        "city": null,
        "timezone": 7,
        "popular": false,
        "precedence": 0
    },
    {
        "id": "5a977e7fb2b78c6734f17f67",
        "code": "Kediri",
        "name": "Kediri",
        "type": "CITY",
        "locator": {
            "latitude": -7.848016,
            "longitude": 112.017829
        },
        "city": null,
        "timezone": 7,
        "popular": false,
        "precedence": 0
    },
    {
        "id": "5a977e7fb2b78c6734f17f68",
        "code": "Kendal",
        "name": "Kendal",
        "type": "CITY",
        "locator": {
            "latitude": 54.328006,
            "longitude": -2.74629
        },
        "city": null,
        "timezone": 7,
        "popular": false,
        "precedence": 0
    },
    {
        "id": "5a977e7fb2b78c6734f17f69",
        "code": "Kisaran",
        "name": "Kisaran",
        "type": "CITY",
        "locator": {
            "latitude": 2.983163,
            "longitude": 99.627871
        },
        "city": null,
        "timezone": 7,
        "popular": false,
        "precedence": 0
    },
    {
        "id": "5a977e7fb2b78c6734f17f6a",
        "code": "Klaten",
        "name": "Klaten",
        "type": "CITY",
        "locator": {
            "latitude": -7.657893,
            "longitude": 110.664568
        },
        "city": null,
        "timezone": 7,
        "popular": false,
        "precedence": 0
    },
    {
        "id": "5a977e7fb2b78c6734f17f6b",
        "code": "Kotabumi",
        "name": "Kotabumi",
        "type": "CITY",
        "locator": {
            "latitude": -4.82461,
            "longitude": 104.896407
        },
        "city": null,
        "timezone": 7,
        "popular": false,
        "precedence": 0
    },
    {
        "id": "5a977e7fb2b78c6734f17f6c",
        "code": "Kutoarjo",
        "name": "Kutoarjo",
        "type": "CITY",
        "locator": {
            "latitude": -77.20673,
            "longitude": 109.908005
        },
        "city": null,
        "timezone": 7,
        "popular": false,
        "precedence": 0
    },
    {
        "id": "5a977e7fb2b78c6734f17f6d",
        "code": "Lahat",
        "name": "Lahat",
        "type": "CITY",
        "locator": {
            "latitude": -3.785627,
            "longitude": 103.540799
        },
        "city": null,
        "timezone": 7,
        "popular": false,
        "precedence": 0
    },
    {
        "id": "5a977e7fb2b78c6734f17f6e",
        "code": "Lamongan",
        "name": "Lamongan",
        "type": "CITY",
        "locator": {
            "latitude": -7.126926,
            "longitude": 112.333777
        },
        "city": null,
        "timezone": 7,
        "popular": false,
        "precedence": 0
    },
    {
        "id": "5a977e7fb2b78c6734f17f6f",
        "code": "Lampung",
        "name": "Lampung",
        "type": "CITY",
        "locator": {
            "latitude": -4.558585,
            "longitude": 105.406808
        },
        "city": null,
        "timezone": 7,
        "popular": false,
        "precedence": 0
    },
    {
        "id": "5a977e7fb2b78c6734f17f70",
        "code": "Lebak",
        "name": "Lebak",
        "type": "CITY",
        "locator": {
            "latitude": -6.564396,
            "longitude": 106.252214
        },
        "city": null,
        "timezone": 7,
        "popular": false,
        "precedence": 0
    },
    {
        "id": "5a977e7fb2b78c6734f17f71",
        "code": "Palembang",
        "name": "Palembang",
        "type": "CITY",
        "locator": {
            "latitude": -2.9760735,
            "longitude": 104.7754307
        },
        "city": null,
        "timezone": 7,
        "popular": false,
        "precedence": 0
    },
    {
        "id": "5a977e7fb2b78c6734f17f72",
        "code": "Lubuk Linggau",
        "name": "Lubuk Linggau",
        "type": "CITY",
        "locator": {
            "latitude": -3.299586,
            "longitude": 102.857236
        },
        "city": null,
        "timezone": 7,
        "popular": false,
        "precedence": 0
    },
    {
        "id": "5a977e7fb2b78c6734f17f73",
        "code": "Lumajang",
        "name": "Lumajang",
        "type": "CITY",
        "locator": {
            "latitude": -8.094357,
            "longitude": 113.144156
        },
        "city": null,
        "timezone": 7,
        "popular": false,
        "precedence": 0
    },
    {
        "id": "5a977e7fb2b78c6734f17f74",
        "code": "Madiun",
        "name": "Madiun",
        "type": "CITY",
        "locator": {
            "latitude": -7.631059,
            "longitude": 111.530016
        },
        "city": null,
        "timezone": 7,
        "popular": false,
        "precedence": 0
    },
    {
        "id": "5a977e7fb2b78c6734f17f75",
        "code": "Magetan",
        "name": "Magetan",
        "type": "CITY",
        "locator": {
            "latitude": -7.643314,
            "longitude": 111.356045
        },
        "city": null,
        "timezone": 7,
        "popular": false,
        "precedence": 0
    },
    {
        "id": "5a977e7fb2b78c6734f17f76",
        "code": "Malang",
        "name": "Malang",
        "type": "CITY",
        "locator": {
            "latitude": -7.96662,
            "longitude": 112.632632
        },
        "city": null,
        "timezone": 7,
        "popular": false,
        "precedence": 0
    },
    {
        "id": "5a977e7fb2b78c6734f17f77",
        "code": "Medan",
        "name": "Medan",
        "type": "CITY",
        "locator": {
            "latitude": 3.595196,
            "longitude": 98.672223
        },
        "city": null,
        "timezone": 7,
        "popular": false,
        "precedence": 0
    },
    {
        "id": "5a977e7fb2b78c6734f17f78",
        "code": "Mojokerto",
        "name": "Mojokerto",
        "type": "CITY",
        "locator": {
            "latitude": -7.470475,
            "longitude": 112.440133
        },
        "city": null,
        "timezone": 7,
        "popular": false,
        "precedence": 0
    },
    {
        "id": "5a977e7fb2b78c6734f17f79",
        "code": "Muara Enim",
        "name": "Muara Enim",
        "type": "CITY",
        "locator": {
            "latitude": -3.711416,
            "longitude": 104.007235
        },
        "city": null,
        "timezone": 7,
        "popular": false,
        "precedence": 0
    },
    {
        "id": "5a977e7fb2b78c6734f17f7a",
        "code": "Nganjuk",
        "name": "Nganjuk",
        "type": "CITY",
        "locator": {
            "latitude": -7.594351,
            "longitude": 111.904554
        },
        "city": null,
        "timezone": 7,
        "popular": false,
        "precedence": 0
    },
    {
        "id": "5a977e7fb2b78c6734f17f7b",
        "code": "Ngawi",
        "name": "Ngawi",
        "type": "CITY",
        "locator": {
            "latitude": -7.460987,
            "longitude": 111.332197
        },
        "city": null,
        "timezone": 7,
        "popular": false,
        "precedence": 0
    },
    {
        "id": "5a977e7fb2b78c6734f17f96",
        "code": "Ogan Ilir",
        "name": "Ogan Ilir",
        "type": "CITY",
        "locator": {
            "latitude": -3.4189347,
            "longitude": 104.2798486
        },
        "city": null,
        "timezone": 7,
        "popular": false,
        "precedence": 0
    },
    {
        "id": "5a977e7fb2b78c6734f17f7c",
        "code": "Pasuruan",
        "name": "Pasuruan",
        "type": "CITY",
        "locator": {
            "latitude": -7.646919,
            "longitude": 112.899923
        },
        "city": null,
        "timezone": 7,
        "popular": false,
        "precedence": 0
    },
    {
        "id": "5a977e7fb2b78c6734f17f7d",
        "code": "Pekalongan",
        "name": "Pekalongan",
        "type": "CITY",
        "locator": {
            "latitude": -6.889836,
            "longitude": 109.674592
        },
        "city": null,
        "timezone": 7,
        "popular": false,
        "precedence": 0
    },
    {
        "id": "5a977e7fb2b78c6734f17f7e",
        "code": "Pemalang",
        "name": "Pemalang",
        "type": "CITY",
        "locator": {
            "latitude": -7.059942,
            "longitude": 109.425911
        },
        "city": null,
        "timezone": 7,
        "popular": false,
        "precedence": 0
    },
    {
        "id": "5a977e7fb2b78c6734f17f7f",
        "code": "Pematang Siantar",
        "name": "Pematang Siantar",
        "type": "CITY",
        "locator": {
            "latitude": 2.970042,
            "longitude": 99.068167
        },
        "city": null,
        "timezone": 7,
        "popular": false,
        "precedence": 0
    },
    {
        "id": "5a977e7fb2b78c6734f17f80",
        "code": "Ponorogo",
        "name": "Ponorogo",
        "type": "CITY",
        "locator": {
            "latitude": -7.865076,
            "longitude": 111.469632
        },
        "city": null,
        "timezone": 7,
        "popular": false,
        "precedence": 0
    },
    {
        "id": "5a977e7fb2b78c6734f17f81",
        "code": "Prabumulih",
        "name": "Prabumulih",
        "type": "CITY",
        "locator": {
            "latitude": -3.421371,
            "longitude": 104.243683
        },
        "city": null,
        "timezone": 7,
        "popular": false,
        "precedence": 0
    },
    {
        "id": "5a977e7fb2b78c6734f17f82",
        "code": "Probolinggo",
        "name": "Probolinggo",
        "type": "CITY",
        "locator": {
            "latitude": -7.776423,
            "longitude": 113.203713
        },
        "city": null,
        "timezone": 7,
        "popular": false,
        "precedence": 0
    },
    {
        "id": "5a977e7fb2b78c6734f17f83",
        "code": "Purwakarta",
        "name": "Purwakarta",
        "type": "CITY",
        "locator": {
            "latitude": -6.540666,
            "longitude": 107.446272
        },
        "city": null,
        "timezone": 7,
        "popular": false,
        "precedence": 0
    },
    {
        "id": "5a977e7fb2b78c6734f17f84",
        "code": "Purwokerto",
        "name": "Purwokerto",
        "type": "CITY",
        "locator": {
            "latitude": -7.424278,
            "longitude": 109.239637
        },
        "city": null,
        "timezone": 7,
        "popular": false,
        "precedence": 0
    },
    {
        "id": "5a977e7fb2b78c6734f17f85",
        "code": "Purworejo",
        "name": "Purworejo",
        "type": "CITY",
        "locator": {
            "latitude": -7.740374,
            "longitude": 110.033055
        },
        "city": null,
        "timezone": 7,
        "popular": false,
        "precedence": 0
    },
    {
        "id": "5a977e7fb2b78c6734f17f86",
        "code": "Rantau Prapat",
        "name": "Rantau Prapat",
        "type": "CITY",
        "locator": {
            "latitude": 1.3658,
            "longitude": 112.858217
        },
        "city": null,
        "timezone": 7,
        "popular": false,
        "precedence": 0
    },
    {
        "id": "5a977e7fb2b78c6734f17f87",
        "code": "Semarang",
        "name": "Semarang",
        "type": "CITY",
        "locator": {
            "latitude": -7.005145,
            "longitude": 110.438125
        },
        "city": null,
        "timezone": 7,
        "popular": false,
        "precedence": 0
    },
    {
        "id": "5a977e7fb2b78c6734f17f88",
        "code": "Serang",
        "name": "Serang",
        "type": "CITY",
        "locator": {
            "latitude": -6.110366,
            "longitude": 106.163975
        },
        "city": null,
        "timezone": 7,
        "popular": false,
        "precedence": 0
    },
    {
        "id": "5a977e7fb2b78c6734f17f89",
        "code": "Serdang Bedagai",
        "name": "Serdang Bedagai",
        "type": "CITY",
        "locator": {
            "latitude": 3.337169,
            "longitude": 99.057109
        },
        "city": null,
        "timezone": 7,
        "popular": false,
        "precedence": 0
    },
    {
        "id": "5a977e7fb2b78c6734f17f8a",
        "code": "Sidoarjo",
        "name": "Sidoarjo",
        "type": "CITY",
        "locator": {
            "latitude": -7.472613,
            "longitude": 112.66754
        },
        "city": null,
        "timezone": 7,
        "popular": false,
        "precedence": 0
    },
    {
        "id": "5a977e7fb2b78c6734f17f8b",
        "code": "Solo",
        "name": "Solo",
        "type": "CITY",
        "locator": {
            "latitude": -7.575489,
            "longitude": 110.824327
        },
        "city": null,
        "timezone": 7,
        "popular": false,
        "precedence": 0
    },
    {
        "id": "5a977e7fb2b78c6734f17f8c",
        "code": "Sragen",
        "name": "Sragen",
        "type": "CITY",
        "locator": {
            "latitude": -7.43027,
            "longitude": 111.009186
        },
        "city": null,
        "timezone": 7,
        "popular": false,
        "precedence": 0
    },
    {
        "id": "5a977e7fb2b78c6734f17f8d",
        "code": "Subang",
        "name": "Subang",
        "type": "CITY",
        "locator": {
            "latitude": 3.056733,
            "longitude": 101.585119
        },
        "city": null,
        "timezone": 7,
        "popular": false,
        "precedence": 0
    },
    {
        "id": "5a977e7fb2b78c6734f17f8e",
        "code": "Sukabumi",
        "name": "Sukabumi",
        "type": "CITY",
        "locator": {
            "latitude": -6.927736,
            "longitude": 106.929958
        },
        "city": null,
        "timezone": 7,
        "popular": false,
        "precedence": 0
    },
    {
        "id": "5a977e7fb2b78c6734f17f8f",
        "code": "Surabaya",
        "name": "Surabaya",
        "type": "CITY",
        "locator": {
            "latitude": -7.257472,
            "longitude": 112.752088
        },
        "city": null,
        "timezone": 7,
        "popular": false,
        "precedence": 0
    },
    {
        "id": "5a977e7fb2b78c6734f17f90",
        "code": "Tangerang",
        "name": "Tangerang",
        "type": "CITY",
        "locator": {
            "latitude": -6.202394,
            "longitude": 106.65271
        },
        "city": null,
        "timezone": 7,
        "popular": false,
        "precedence": 0
    },
    {
        "id": "5a977e7fb2b78c6734f17f91",
        "code": "Tanjung Balai",
        "name": "Tanjung Balai",
        "type": "CITY",
        "locator": {
            "latitude": 2.966235,
            "longitude": 99.798546
        },
        "city": null,
        "timezone": 7,
        "popular": false,
        "precedence": 0
    },
    {
        "id": "5a977e7fb2b78c6734f17f92",
        "code": "Tasikmalaya",
        "name": "Tasikmalaya",
        "type": "CITY",
        "locator": {
            "latitude": -7.350581,
            "longitude": 108.217163
        },
        "city": null,
        "timezone": 7,
        "popular": false,
        "precedence": 0
    },
    {
        "id": "5a977e7fb2b78c6734f17f93",
        "code": "Tegal",
        "name": "Tegal",
        "type": "CITY",
        "locator": {
            "latitude": -6.879704,
            "longitude": 109.125592
        },
        "city": null,
        "timezone": 7,
        "popular": false,
        "precedence": 0
    },
    {
        "id": "5a977e7fb2b78c6734f17f94",
        "code": "Tulungagung",
        "name": "Tulungagung",
        "type": "CITY",
        "locator": {
            "latitude": -8.091221,
            "longitude": 111.964173
        },
        "city": null,
        "timezone": 7,
        "popular": false,
        "precedence": 0
    },
    {
        "id": "5a977e7fb2b78c6734f17f95",
        "code": "Yogyakarta",
        "name": "Yogyakarta",
        "type": "CITY",
        "locator": {
            "latitude": -7.79558,
            "longitude": 110.36949
        },
        "city": null,
        "timezone": 7,
        "popular": false,
        "precedence": 0
    },
    {
        "id": "5a977e7fb2b78c6734f17f96",
        "code": "BD",
        "name": "Bandung",
        "type": "STATION",
        "locator": {
            "latitude": -6.914174,
            "longitude": 107.602515
        },
        "city": {
            "code": "Bandung",
            "name": "Bandung",
            "locator": {
                "latitude": -6.917464,
                "longitude": 107.619123
            },
            "popular": true,
            "timezone": 7
        },
        "timezone": 7,
        "popular": true,
        "precedence": 0
    },
    {
        "id": "5a977e7fb2b78c6734f17f97",
        "code": "CCL",
        "name": "Cicalengka",
        "type": "STATION",
        "locator": {
            "latitude": -6.981533,
            "longitude": 107.83269
        },
        "city": {
            "code": "Bandung",
            "name": "Bandung",
            "locator": {
                "latitude": -6.917464,
                "longitude": 107.619123
            },
            "popular": false,
            "timezone": 7
        },
        "timezone": 7,
        "popular": false,
        "precedence": 0
    },
    {
        "id": "5a977e7fb2b78c6734f17f98",
        "code": "CD",
        "name": "Cikadongdong",
        "type": "STATION",
        "locator": {
            "latitude": -6.71567051791,
            "longitude": 107.390845209821
        },
        "city": {
            "code": "Bandung",
            "name": "Bandung",
            "locator": {
                "latitude": -6.917464,
                "longitude": 107.619123
            },
            "popular": false,
            "timezone": 7
        },
        "timezone": 7,
        "popular": false,
        "precedence": 0
    },
    {
        "id": "5a977e7fb2b78c6734f17f99",
        "code": "CMI",
        "name": "Cimahi",
        "type": "STATION",
        "locator": {
            "latitude": -6.885896851627,
            "longitude": 107.536076341104
        },
        "city": {
            "code": "Bandung",
            "name": "Bandung",
            "locator": {
                "latitude": -6.917464,
                "longitude": 107.619123
            },
            "popular": false,
            "timezone": 7
        },
        "timezone": 7,
        "popular": false,
        "precedence": 0
    },
    {
        "id": "5a977e7fb2b78c6734f17f9a",
        "code": "GDB",
        "name": "Gedebage",
        "type": "STATION",
        "locator": {
            "latitude": -6.940699343617,
            "longitude": 107.689625938657
        },
        "city": {
            "code": "Bandung",
            "name": "Bandung",
            "locator": {
                "latitude": -6.917464,
                "longitude": 107.619123
            },
            "popular": false,
            "timezone": 7
        },
        "timezone": 7,
        "popular": false,
        "precedence": 0
    },
    {
        "id": "5a977e7fb2b78c6734f17f9b",
        "code": "HRP",
        "name": "Haurpugur",
        "type": "STATION",
        "locator": {
            "latitude": -6.98070954543,
            "longitude": 107.799853577733
        },
        "city": {
            "code": "Bandung",
            "name": "Bandung",
            "locator": {
                "latitude": -6.917464,
                "longitude": 107.619123
            },
            "popular": false,
            "timezone": 7
        },
        "timezone": 7,
        "popular": false,
        "precedence": 0
    },
    {
        "id": "5a977e7fb2b78c6734f17f9c",
        "code": "KAC",
        "name": "Kiaracondong",
        "type": "STATION",
        "locator": {
            "latitude": -6.924614285967,
            "longitude": 107.646712503662
        },
        "city": {
            "code": "Bandung",
            "name": "Bandung",
            "locator": {
                "latitude": -6.917464,
                "longitude": 107.619123
            },
            "popular": false,
            "timezone": 7
        },
        "timezone": 7,
        "popular": false,
        "precedence": 0
    },
    {
        "id": "5a977e7fb2b78c6734f17f9d",
        "code": "PDL",
        "name": "Padalarang",
        "type": "STATION",
        "locator": {
            "latitude": -6.842884,
            "longitude": 107.497387
        },
        "city": {
            "code": "Bandung",
            "name": "Bandung",
            "locator": {
                "latitude": -6.917464,
                "longitude": 107.619123
            },
            "popular": false,
            "timezone": 7
        },
        "timezone": 7,
        "popular": false,
        "precedence": 0
    },
    {
        "id": "5a977e7fb2b78c6734f17f9e",
        "code": "RCK",
        "name": "Rancaekek",
        "type": "STATION",
        "locator": {
            "latitude": -6.964941783223,
            "longitude": 107.755801970569
        },
        "city": {
            "code": "Bandung",
            "name": "Bandung",
            "locator": {
                "latitude": -6.917464,
                "longitude": 107.619123
            },
            "popular": false,
            "timezone": 7
        },
        "timezone": 7,
        "popular": false,
        "precedence": 0
    },
    {
        "id": "5a977e7fb2b78c6734f17f9f",
        "code": "RH",
        "name": "Rendeh",
        "type": "STATION",
        "locator": {
            "latitude": -6.736202964317,
            "longitude": 107.398652661376
        },
        "city": {
            "code": "Bandung",
            "name": "Bandung",
            "locator": {
                "latitude": -6.917464,
                "longitude": 107.619123
            },
            "popular": false,
            "timezone": 7
        },
        "timezone": 7,
        "popular": false,
        "precedence": 0
    },
    {
        "id": "5a977e7fb2b78c6734f17fa0",
        "code": "BJR",
        "name": "Banjar",
        "type": "STATION",
        "locator": {
            "latitude": -7.376245,
            "longitude": 108.542244
        },
        "city": {
            "code": "Banjar",
            "name": "Banjar",
            "locator": {
                "latitude": -3.320023,
                "longitude": 114.999146
            },
            "popular": false,
            "timezone": 7
        },
        "timezone": 7,
        "popular": false,
        "precedence": 0
    },
    {
        "id": "5a977e7fb2b78c6734f17fa1",
        "code": "LN",
        "name": "Langen",
        "type": "STATION",
        "locator": {
            "latitude": -7.39410395943,
            "longitude": 108.699393550926
        },
        "city": {
            "code": "Banjar",
            "name": "Banjar",
            "locator": {
                "latitude": -3.320023,
                "longitude": 114.999146
            },
            "popular": false,
            "timezone": 7
        },
        "timezone": 7,
        "popular": false,
        "precedence": 0
    },
    {
        "id": "5a977e7fb2b78c6734f17fa2",
        "code": "KBS",
        "name": "Kebasen",
        "type": "STATION",
        "locator": {
            "latitude": -7.530195545242,
            "longitude": 109.203069347221
        },
        "city": {
            "code": "Banyumas",
            "name": "Banyumas",
            "locator": {
                "latitude": -7.483213,
                "longitude": 109.140438
            },
            "popular": false,
            "timezone": 7
        },
        "timezone": 7,
        "popular": false,
        "precedence": 0
    },
    {
        "id": "5a977e7fb2b78c6734f17fa3",
        "code": "KJ",
        "name": "Kemranjen",
        "type": "STATION",
        "locator": {
            "latitude": -7.621936100965,
            "longitude": 109.312960551906
        },
        "city": {
            "code": "Banyumas",
            "name": "Banyumas",
            "locator": {
                "latitude": -7.483213,
                "longitude": 109.140438
            },
            "popular": false,
            "timezone": 7
        },
        "timezone": 7,
        "popular": false,
        "precedence": 0
    },
    {
        "id": "5a977e7fb2b78c6734f17fa4",
        "code": "NTG",
        "name": "Notog",
        "type": "STATION",
        "locator": {
            "latitude": -7.486090473045,
            "longitude": 109.213323373016
        },
        "city": {
            "code": "Banyumas",
            "name": "Banyumas",
            "locator": {
                "latitude": -7.483213,
                "longitude": 109.140438
            },
            "popular": false,
            "timezone": 7
        },
        "timezone": 7,
        "popular": false,
        "precedence": 0
    },
    {
        "id": "5a977e7fb2b78c6734f17fa5",
        "code": "SPH",
        "name": "Sumpiuh",
        "type": "STATION",
        "locator": {
            "latitude": -7.615388,
            "longitude": 109.361189
        },
        "city": {
            "code": "Banyumas",
            "name": "Banyumas",
            "locator": {
                "latitude": -7.483213,
                "longitude": 109.140438
            },
            "popular": false,
            "timezone": 7
        },
        "timezone": 7,
        "popular": false,
        "precedence": 0
    },
    {
        "id": "5a977e7fb2b78c6734f17fa6",
        "code": "TBK",
        "name": "Tambak",
        "type": "STATION",
        "locator": {
            "latitude": -7.615316164276,
            "longitude": 109.446939141166
        },
        "city": {
            "code": "Banyumas",
            "name": "Banyumas",
            "locator": {
                "latitude": -7.483213,
                "longitude": 109.140438
            },
            "popular": false,
            "timezone": 7
        },
        "timezone": 7,
        "popular": false,
        "precedence": 0
    },
    {
        "id": "5a977e7fb2b78c6734f17fa7",
        "code": "KRR",
        "name": "Karangsari",
        "type": "STATION",
        "locator": {
            "latitude": -7.3825267,
            "longitude": 109.1188896
        },
        "city": {
            "code": "Banyumas",
            "name": "Banyumas",
            "locator": {
                "latitude": -7.483213,
                "longitude": 109.140438
            },
            "popular": false,
            "timezone": 7
        },
        "timezone": 7,
        "popular": false,
        "precedence": 0
    },
    {
        "id": "5a977e7fb2b78c6734f17fa8",
        "code": "GLM",
        "name": "Glenmore",
        "type": "STATION",
        "locator": {
            "latitude": -8.299642870639,
            "longitude": 114.049470449073
        },
        "city": {
            "code": "Banyuwangi",
            "name": "Banyuwangi",
            "locator": {
                "latitude": -8.219094,
                "longitude": 114.369142
            },
            "popular": false,
            "timezone": 7
        },
        "timezone": 7,
        "popular": false,
        "precedence": 0
    },
    {
        "id": "5a977e7fb2b78c6734f17fa9",
        "code": "KBR",
        "name": "Kalibaru",
        "type": "STATION",
        "locator": {
            "latitude": -8.288733,
            "longitude": 113.98413
        },
        "city": {
            "code": "Banyuwangi",
            "name": "Banyuwangi",
            "locator": {
                "latitude": -8.219094,
                "longitude": 114.369142
            },
            "popular": false,
            "timezone": 7
        },
        "timezone": 7,
        "popular": false,
        "precedence": 0
    },
    {
        "id": "5a977e7fb2b78c6734f17faa",
        "code": "KNE",
        "name": "Karangasem",
        "type": "STATION",
        "locator": {
            "latitude": -8.222837,
            "longitude": 114.340672
        },
        "city": {
            "code": "Banyuwangi",
            "name": "Banyuwangi",
            "locator": {
                "latitude": -8.219094,
                "longitude": 114.369142
            },
            "popular": false,
            "timezone": 7
        },
        "timezone": 7,
        "popular": false,
        "precedence": 0
    },
    {
        "id": "5a977e7fb2b78c6734f17fab",
        "code": "KSL",
        "name": "Kalisetail",
        "type": "STATION",
        "locator": {
            "latitude": -8.302854078994,
            "longitude": 114.139807941716
        },
        "city": {
            "code": "Banyuwangi",
            "name": "Banyuwangi",
            "locator": {
                "latitude": -8.219094,
                "longitude": 114.369142
            },
            "popular": false,
            "timezone": 7
        },
        "timezone": 7,
        "popular": false,
        "precedence": 0
    },
    {
        "id": "5a977e7fb2b78c6734f17fac",
        "code": "BW",
        "name": "Banyuwangibaru",
        "type": "STATION",
        "locator": {
            "latitude": -8.1411747,
            "longitude": 114.3949536
        },
        "city": {
            "code": "Banyuwangi",
            "name": "Banyuwangi",
            "locator": {
                "latitude": -8.219094,
                "longitude": 114.369142
            },
            "popular": false,
            "timezone": 7
        },
        "timezone": 7,
        "popular": false,
        "precedence": 0
    },
    {
        "id": "5a977e7fb2b78c6734f17fad",
        "code": "RGP",
        "name": "Rogojampi",
        "type": "STATION",
        "locator": {
            "latitude": -8.3045193,
            "longitude": 114.2903909
        },
        "city": {
            "code": "Banyuwangi",
            "name": "Banyuwangi",
            "locator": {
                "latitude": -8.219094,
                "longitude": 114.369142
            },
            "popular": false,
            "timezone": 7
        },
        "timezone": 7,
        "popular": false,
        "precedence": 0
    },
    {
        "id": "5a977e7fb2b78c6734f17fae",
        "code": "SWD",
        "name": "Sumberwadung",
        "type": "STATION",
        "locator": {
            "latitude": -8.3018887,
            "longitude": 114.1031379
        },
        "city": {
            "code": "Banyuwangi",
            "name": "Banyuwangi",
            "locator": {
                "latitude": -8.219094,
                "longitude": 114.369142
            },
            "popular": false,
            "timezone": 7
        },
        "timezone": 7,
        "popular": false,
        "precedence": 0
    },
    {
        "id": "5a977e7fb2b78c6734f17faf",
        "code": "TGR",
        "name": "Temuguruh",
        "type": "STATION",
        "locator": {
            "latitude": -8.3181166,
            "longitude": 114.2398331
        },
        "city": {
            "code": "Banyuwangi",
            "name": "Banyuwangi",
            "locator": {
                "latitude": -8.219094,
                "longitude": 114.369142
            },
            "popular": false,
            "timezone": 7
        },
        "timezone": 7,
        "popular": false,
        "precedence": 0
    },
    {
        "id": "5a977e7fb2b78c6734f17fb0",
        "code": "BTG",
        "name": "Batang",
        "type": "STATION",
        "locator": {
            "latitude": -6.906523988238,
            "longitude": 109.732581354492
        },
        "city": {
            "code": "Batang",
            "name": "Batang",
            "locator": {
                "latitude": -6.908045,
                "longitude": 109.73268
            },
            "popular": false,
            "timezone": 7
        },
        "timezone": 7,
        "popular": false,
        "precedence": 0
    },
    {
        "id": "5a977e7fb2b78c6734f17fb1",
        "code": "UJN",
        "name": "Ujungnegoro",
        "type": "STATION",
        "locator": {
            "latitude": -6.9087999,
            "longitude": 109.7891665
        },
        "city": {
            "code": "Batang",
            "name": "Batang",
            "locator": {
                "latitude": -6.908045,
                "longitude": 109.73268
            },
            "popular": false,
            "timezone": 7
        },
        "timezone": 7,
        "popular": false,
        "precedence": 0
    },
    {
        "id": "5a977e7fb2b78c6734f17fb2",
        "code": "BTA",
        "name": "Baturaja",
        "type": "STATION",
        "locator": {
            "latitude": -4.1273346,
            "longitude": 104.1598383
        },
        "city": {
            "code": "Baturaja",
            "name": "Baturaja",
            "locator": {
                "latitude": -5.040265,
                "longitude": 103.839016
            },
            "popular": false,
            "timezone": 7
        },
        "timezone": 7,
        "popular": false,
        "precedence": 0
    },
    {
        "id": "5a977e7fb2b78c6734f17fb3",
        "code": "PNW",
        "name": "Paninjawan",
        "type": "STATION",
        "locator": {
            "latitude": -3.8798,
            "longitude": 104.3765
        },
        "city": {
            "code": "Baturaja",
            "name": "Baturaja",
            "locator": {
                "latitude": -5.040265,
                "longitude": 103.839016
            },
            "popular": false,
            "timezone": 7
        },
        "timezone": 7,
        "popular": false,
        "precedence": 0
    },
    {
        "id": "5a977e7fb2b78c6734f17fb4",
        "code": "BKS",
        "name": "Bekasi",
        "type": "STATION",
        "locator": {
            "latitude": -6.2349497,
            "longitude": 107.01255
        },
        "city": {
            "code": "Bekasi",
            "name": "Bekasi",
            "locator": {
                "latitude": -6.23827,
                "longitude": 106.975573
            },
            "popular": false,
            "timezone": 7
        },
        "timezone": 7,
        "popular": false,
        "precedence": 0
    },
    {
        "id": "5a977e7fb2b78c6734f17fb5",
        "code": "BIJ",
        "name": "Binjai",
        "type": "STATION",
        "locator": {
            "latitude": 3.60974,
            "longitude": 98.497985
        },
        "city": {
            "code": "Binjai",
            "name": "Binjai",
            "locator": {
                "latitude": 3.613548,
                "longitude": 98.502529
            },
            "popular": false,
            "timezone": 7
        },
        "timezone": 7,
        "popular": false,
        "precedence": 0
    },
    {
        "id": "5a977e7fb2b78c6734f17fb6",
        "code": "BL",
        "name": "Blitar",
        "type": "STATION",
        "locator": {
            "latitude": -8.101398,
            "longitude": 112.16272
        },
        "city": {
            "code": "Blitar",
            "name": "Blitar",
            "locator": {
                "latitude": -8.095463,
                "longitude": 112.160906
            },
            "popular": false,
            "timezone": 7
        },
        "timezone": 7,
        "popular": false,
        "precedence": 0
    },
    {
        "id": "5a977e7fb2b78c6734f17fb7",
        "code": "GRM",
        "name": "Garum",
        "type": "STATION",
        "locator": {
            "latitude": -8.073573622498,
            "longitude": 112.217101804893
        },
        "city": {
            "code": "Blitar",
            "name": "Blitar",
            "locator": {
                "latitude": -8.095463,
                "longitude": 112.160906
            },
            "popular": false,
            "timezone": 7
        },
        "timezone": 7,
        "popular": false,
        "precedence": 0
    },
    {
        "id": "5a977e7fb2b78c6734f17fb8",
        "code": "KSB",
        "name": "Kesamben",
        "type": "STATION",
        "locator": {
            "latitude": -8.149277266965,
            "longitude": 112.363368180968
        },
        "city": {
            "code": "Blitar",
            "name": "Blitar",
            "locator": {
                "latitude": -8.095463,
                "longitude": 112.160906
            },
            "popular": false,
            "timezone": 7
        },
        "timezone": 7,
        "popular": false,
        "precedence": 0
    },
    {
        "id": "5a977e7fb2b78c6734f17fb9",
        "code": "TAL",
        "name": "Talun",
        "type": "STATION",
        "locator": {
            "latitude": -8.091535,
            "longitude": 112.28854
        },
        "city": {
            "code": "Blitar",
            "name": "Blitar",
            "locator": {
                "latitude": -8.095463,
                "longitude": 112.160906
            },
            "popular": false,
            "timezone": 7
        },
        "timezone": 7,
        "popular": false,
        "precedence": 0
    },
    {
        "id": "5a977e7fb2b78c6734f17fba",
        "code": "WG",
        "name": "Wlingi",
        "type": "STATION",
        "locator": {
            "latitude": -8.088364,
            "longitude": 112.3177574
        },
        "city": {
            "code": "Blitar",
            "name": "Blitar",
            "locator": {
                "latitude": -8.095463,
                "longitude": 112.160906
            },
            "popular": false,
            "timezone": 7
        },
        "timezone": 7,
        "popular": false,
        "precedence": 0
    },
    {
        "id": "5a977e7fb2b78c6734f17fbb",
        "code": "CU",
        "name": "Cepu",
        "type": "STATION",
        "locator": {
            "latitude": -7.154542282587,
            "longitude": 111.590772285879
        },
        "city": {
            "code": "Blora",
            "name": "Blora",
            "locator": {
                "latitude": 7.0122,
                "longitude": 111.3799
            },
            "popular": false,
            "timezone": 7
        },
        "timezone": 7,
        "popular": false,
        "precedence": 0
    },
    {
        "id": "5a977e7fb2b78c6734f17fbc",
        "code": "DPL",
        "name": "Doplang",
        "type": "STATION",
        "locator": {
            "latitude": -7.182842966958,
            "longitude": 111.287979507357
        },
        "city": {
            "code": "Blora",
            "name": "Blora",
            "locator": {
                "latitude": 7.0122,
                "longitude": 111.3799
            },
            "popular": false,
            "timezone": 7
        },
        "timezone": 7,
        "popular": false,
        "precedence": 0
    },
    {
        "id": "5a977e7fb2b78c6734f17fbd",
        "code": "RBG",
        "name": "Randublatung",
        "type": "STATION",
        "locator": {
            "latitude": -7.192304301349,
            "longitude": 111.398030101852
        },
        "city": {
            "code": "Blora",
            "name": "Blora",
            "locator": {
                "latitude": 7.0122,
                "longitude": 111.3799
            },
            "popular": false,
            "timezone": 7
        },
        "timezone": 7,
        "popular": false,
        "precedence": 0
    },
    {
        "id": "5a977e7fb2b78c6734f17fbe",
        "code": "BOO",
        "name": "Bogor",
        "type": "STATION",
        "locator": {
            "latitude": -6.594335,
            "longitude": 106.790659
        },
        "city": {
            "code": "Bogor",
            "name": "Bogor",
            "locator": {
                "latitude": -6.597147,
                "longitude": 106.806039
            },
            "popular": false,
            "timezone": 7
        },
        "timezone": 7,
        "popular": false,
        "precedence": 0
    },
    {
        "id": "5a977e7fb2b78c6734f17fbf",
        "code": "CGB",
        "name": "Cigombong",
        "type": "STATION",
        "locator": {
            "latitude": -6.742209435568,
            "longitude": 106.803112752149
        },
        "city": {
            "code": "Bogor",
            "name": "Bogor",
            "locator": {
                "latitude": -6.597147,
                "longitude": 106.806039
            },
            "popular": false,
            "timezone": 7
        },
        "timezone": 7,
        "popular": false,
        "precedence": 0
    },
    {
        "id": "5a977e7fb2b78c6734f17fc0",
        "code": "MSG",
        "name": "Maseng",
        "type": "STATION",
        "locator": {
            "latitude": -6.702577,
            "longitude": 106.814676
        },
        "city": {
            "code": "Bogor",
            "name": "Bogor",
            "locator": {
                "latitude": -6.597147,
                "longitude": 106.806039
            },
            "popular": false,
            "timezone": 7
        },
        "timezone": 7,
        "popular": false,
        "precedence": 0
    },
    {
        "id": "5a977e7fb2b78c6734f17fc1",
        "code": "PRP",
        "name": "Parungpanjang",
        "type": "STATION",
        "locator": {
            "latitude": -6.34422864193,
            "longitude": 106.569464662704
        },
        "city": {
            "code": "Bogor",
            "name": "Bogor",
            "locator": {
                "latitude": -6.597147,
                "longitude": 106.806039
            },
            "popular": false,
            "timezone": 7
        },
        "timezone": 7,
        "popular": false,
        "precedence": 0
    },
    {
        "id": "5a977e7fb2b78c6734f17fc2",
        "code": "BTT",
        "name": "Batu Tulis",
        "type": "STATION",
        "locator": {
            "latitude": -6.6259454,
            "longitude": 106.8096066
        },
        "city": {
            "code": "Bogor",
            "name": "Bogor",
            "locator": {
                "latitude": -6.597147,
                "longitude": 106.806039
            },
            "popular": false,
            "timezone": 7
        },
        "timezone": 7,
        "popular": false,
        "precedence": 0
    },
    {
        "id": "5a977e7fb2b78c6734f17fc3",
        "code": "BJ",
        "name": "Bojonegoro",
        "type": "STATION",
        "locator": {
            "latitude": -7.164252896115,
            "longitude": 111.886628440475
        },
        "city": {
            "code": "Bojonegoro",
            "name": "Bojonegoro",
            "locator": {
                "latitude": -7.317463,
                "longitude": 111.761466
            },
            "popular": false,
            "timezone": 7
        },
        "timezone": 7,
        "popular": false,
        "precedence": 0
    },
    {
        "id": "5a977e7fb2b78c6734f17fc4",
        "code": "KIT",
        "name": "Kalitidu",
        "type": "STATION",
        "locator": {
            "latitude": -7.131741,
            "longitude": 111.767356
        },
        "city": {
            "code": "Bojonegoro",
            "name": "Bojonegoro",
            "locator": {
                "latitude": -7.317463,
                "longitude": 111.761466
            },
            "popular": false,
            "timezone": 7
        },
        "timezone": 7,
        "popular": false,
        "precedence": 0
    },
    {
        "id": "5a977e7fb2b78c6734f17fc5",
        "code": "SRJ",
        "name": "Sumberrejo",
        "type": "STATION",
        "locator": {
            "latitude": -7.178027244302,
            "longitude": 112.001313407986
        },
        "city": {
            "code": "Bojonegoro",
            "name": "Bojonegoro",
            "locator": {
                "latitude": -7.317463,
                "longitude": 111.761466
            },
            "popular": false,
            "timezone": 7
        },
        "timezone": 7,
        "popular": false,
        "precedence": 0
    },
    {
        "id": "5a977e7fb2b78c6734f17fc6",
        "code": "TW",
        "name": "Telawa",
        "type": "STATION",
        "locator": {
            "latitude": -7.185960090232,
            "longitude": 110.75180841468
        },
        "city": {
            "code": "Boyolali",
            "name": "Boyolali",
            "locator": {
                "latitude": -7.431777,
                "longitude": 110.688354
            },
            "popular": false,
            "timezone": 7
        },
        "timezone": 7,
        "popular": false,
        "precedence": 0
    },
    {
        "id": "5a977e7fb2b78c6734f17fc7",
        "code": "BB",
        "name": "Brebes",
        "type": "STATION",
        "locator": {
            "latitude": -6.874261,
            "longitude": 109.043019
        },
        "city": {
            "code": "Brebes",
            "name": "Brebes",
            "locator": {
                "latitude": -6.856421,
                "longitude": 109.039376
            },
            "popular": false,
            "timezone": 7
        },
        "timezone": 7,
        "popular": false,
        "precedence": 0
    },
    {
        "id": "5a977e7fb2b78c6734f17fc8",
        "code": "BMA",
        "name": "Bumiayu",
        "type": "STATION",
        "locator": {
            "latitude": -7.237532455395,
            "longitude": 109.009843174851
        },
        "city": {
            "code": "Brebes",
            "name": "Brebes",
            "locator": {
                "latitude": -6.856421,
                "longitude": 109.039376
            },
            "popular": false,
            "timezone": 7
        },
        "timezone": 7,
        "popular": false,
        "precedence": 0
    },
    {
        "id": "5a977e7fb2b78c6734f17fc9",
        "code": "KGB",
        "name": "Ketanggungan Barat",
        "type": "STATION",
        "locator": {
            "latitude": -6.929418987851,
            "longitude": 108.856178737434
        },
        "city": {
            "code": "Brebes",
            "name": "Brebes",
            "locator": {
                "latitude": -6.856421,
                "longitude": 109.039376
            },
            "popular": false,
            "timezone": 7
        },
        "timezone": 7,
        "popular": false,
        "precedence": 0
    },
    {
        "id": "5a977e7fb2b78c6734f17fca",
        "code": "KGG",
        "name": "Ketanggungan",
        "type": "STATION",
        "locator": {
            "latitude": -6.938397015377,
            "longitude": 108.884307338046
        },
        "city": {
            "code": "Brebes",
            "name": "Brebes",
            "locator": {
                "latitude": -6.856421,
                "longitude": 109.039376
            },
            "popular": false,
            "timezone": 7
        },
        "timezone": 7,
        "popular": false,
        "precedence": 0
    },
    {
        "id": "5a977e7fb2b78c6734f17fcb",
        "code": "KRT",
        "name": "Kretek",
        "type": "STATION",
        "locator": {
            "latitude": -7.28568,
            "longitude": 109.029885
        },
        "city": {
            "code": "Brebes",
            "name": "Brebes",
            "locator": {
                "latitude": -6.856421,
                "longitude": 109.039376
            },
            "popular": false,
            "timezone": 7
        },
        "timezone": 7,
        "popular": false,
        "precedence": 0
    },
    {
        "id": "5a977e7fb2b78c6734f17fcc",
        "code": "LG",
        "name": "Linggapura",
        "type": "STATION",
        "locator": {
            "latitude": -7.185198768135,
            "longitude": 109.012556784061
        },
        "city": {
            "code": "Brebes",
            "name": "Brebes",
            "locator": {
                "latitude": -6.856421,
                "longitude": 109.039376
            },
            "popular": false,
            "timezone": 7
        },
        "timezone": 7,
        "popular": false,
        "precedence": 0
    },
    {
        "id": "5a977e7fb2b78c6734f17fcd",
        "code": "LR",
        "name": "Larangan",
        "type": "STATION",
        "locator": {
            "latitude": -6.868084496257,
            "longitude": 109.185656271163
        },
        "city": {
            "code": "Brebes",
            "name": "Brebes",
            "locator": {
                "latitude": -6.856421,
                "longitude": 109.039376
            },
            "popular": false,
            "timezone": 7
        },
        "timezone": 7,
        "popular": false,
        "precedence": 0
    },
    {
        "id": "5a977e7fb2b78c6734f17fce",
        "code": "LRA",
        "name": "Larangan",
        "type": "STATION",
        "locator": {
            "latitude": -6.990382807334,
            "longitude": 108.948628309192
        },
        "city": {
            "code": "Brebes",
            "name": "Brebes",
            "locator": {
                "latitude": -6.856421,
                "longitude": 109.039376
            },
            "popular": false,
            "timezone": 7
        },
        "timezone": 7,
        "popular": false,
        "precedence": 0
    },
    {
        "id": "5a977e7fb2b78c6734f17fcf",
        "code": "BKA",
        "name": "Bulakamba",
        "type": "STATION",
        "locator": {
            "latitude": -6.8744818,
            "longitude": 109.0417212
        },
        "city": {
            "code": "Brebes",
            "name": "Brebes",
            "locator": {
                "latitude": -6.856421,
                "longitude": 109.039376
            },
            "popular": false,
            "timezone": 7
        },
        "timezone": 7,
        "popular": false,
        "precedence": 0
    },
    {
        "id": "5a977e7fb2b78c6734f17fd0",
        "code": "PAT",
        "name": "Patuguran",
        "type": "STATION",
        "locator": {
            "latitude": -7.3282132,
            "longitude": 109.0576637
        },
        "city": {
            "code": "Brebes",
            "name": "Brebes",
            "locator": {
                "latitude": -6.856421,
                "longitude": 109.039376
            },
            "popular": false,
            "timezone": 7
        },
        "timezone": 7,
        "popular": false,
        "precedence": 0
    },
    {
        "id": "5a977e7fb2b78c6734f17fd1",
        "code": "SGG",
        "name": "Songgom",
        "type": "STATION",
        "locator": {
            "latitude": -7.0245122,
            "longitude": 108.9888769
        },
        "city": {
            "code": "Brebes",
            "name": "Brebes",
            "locator": {
                "latitude": -6.856421,
                "longitude": 109.039376
            },
            "popular": false,
            "timezone": 7
        },
        "timezone": 7,
        "popular": false,
        "precedence": 0
    },
    {
        "id": "5a977e7fb2b78c6734f17fd2",
        "code": "TGN",
        "name": "Tanjung",
        "type": "STATION",
        "locator": {
            "latitude": -6.8767147,
            "longitude": 108.8588813
        },
        "city": {
            "code": "Brebes",
            "name": "Brebes",
            "locator": {
                "latitude": -6.856421,
                "longitude": 109.039376
            },
            "popular": false,
            "timezone": 7
        },
        "timezone": 7,
        "popular": false,
        "precedence": 0
    },
    {
        "id": "5a977e7fb2b78c6734f17fd3",
        "code": "CI",
        "name": "Ciamis",
        "type": "STATION",
        "locator": {
            "latitude": -7.329305,
            "longitude": 108.355796
        },
        "city": {
            "code": "Ciamis",
            "name": "Ciamis",
            "locator": {
                "latitude": -7.329868,
                "longitude": 108.332255
            },
            "popular": false,
            "timezone": 7
        },
        "timezone": 7,
        "popular": false,
        "precedence": 0
    },
    {
        "id": "5a977e7fb2b78c6734f17fd4",
        "code": "CBB",
        "name": "Cibeber",
        "type": "STATION",
        "locator": {
            "latitude": -6.937603361203,
            "longitude": 107.121303407409
        },
        "city": {
            "code": "Cianjur",
            "name": "Cianjur",
            "locator": {
                "latitude": -6.81463,
                "longitude": 107.131829
            },
            "popular": false,
            "timezone": 7
        },
        "timezone": 7,
        "popular": false,
        "precedence": 0
    },
    {
        "id": "5a977e7fb2b78c6734f17fd5",
        "code": "CJ",
        "name": "Cianjur",
        "type": "STATION",
        "locator": {
            "latitude": -6.824591020773,
            "longitude": 107.143026509262
        },
        "city": {
            "code": "Cianjur",
            "name": "Cianjur",
            "locator": {
                "latitude": -6.81463,
                "longitude": 107.131829
            },
            "popular": false,
            "timezone": 7
        },
        "timezone": 7,
        "popular": false,
        "precedence": 0
    },
    {
        "id": "5a977e7fb2b78c6734f17fd6",
        "code": "CLK",
        "name": "Cilaku",
        "type": "STATION",
        "locator": {
            "latitude": -6.8245222,
            "longitude": 107.1425235
        },
        "city": {
            "code": "Cianjur",
            "name": "Cianjur",
            "locator": {
                "latitude": -6.81463,
                "longitude": 107.131829
            },
            "popular": false,
            "timezone": 7
        },
        "timezone": 7,
        "popular": false,
        "precedence": 0
    },
    {
        "id": "5a977e7fb2b78c6734f17fd7",
        "code": "LP",
        "name": "Lampegan",
        "type": "STATION",
        "locator": {
            "latitude": -7.163687,
            "longitude": 110.6356019
        },
        "city": {
            "code": "Cianjur",
            "name": "Cianjur",
            "locator": {
                "latitude": -6.81463,
                "longitude": 107.131829
            },
            "popular": false,
            "timezone": 7
        },
        "timezone": 7,
        "popular": false,
        "precedence": 0
    },
    {
        "id": "5a977e7fb2b78c6734f17fd8",
        "code": "CKP",
        "name": "Cikampek",
        "type": "STATION",
        "locator": {
            "latitude": -6.40671618691,
            "longitude": 107.458802393848
        },
        "city": {
            "code": "Cikampek",
            "name": "Cikampek",
            "locator": {
                "latitude": -6.395874,
                "longitude": 107.438111
            },
            "popular": false,
            "timezone": 7
        },
        "timezone": 7,
        "popular": false,
        "precedence": 0
    },
    {
        "id": "5a977e7fb2b78c6734f17fd9",
        "code": "CP",
        "name": "Cilacap",
        "type": "STATION",
        "locator": {
            "latitude": -7.7361671,
            "longitude": 109.006932
        },
        "city": {
            "code": "Cilacap",
            "name": "Cilacap",
            "locator": {
                "latitude": -7.698299,
                "longitude": 109.023521
            },
            "popular": false,
            "timezone": 7
        },
        "timezone": 7,
        "popular": false,
        "precedence": 0
    },
    {
        "id": "5a977e80b2b78c6734f17fda",
        "code": "CPI",
        "name": "Cipari",
        "type": "STATION",
        "locator": {
            "latitude": -7.440613901507,
            "longitude": 108.760880139881
        },
        "city": {
            "code": "Cilacap",
            "name": "Cilacap",
            "locator": {
                "latitude": -7.698299,
                "longitude": 109.023521
            },
            "popular": false,
            "timezone": 7
        },
        "timezone": 7,
        "popular": false,
        "precedence": 0
    },
    {
        "id": "5a977e80b2b78c6734f17fdb",
        "code": "GDM",
        "name": "Gandrungmangun",
        "type": "STATION",
        "locator": {
            "latitude": -7.527746295552,
            "longitude": 108.858726530094
        },
        "city": {
            "code": "Cilacap",
            "name": "Cilacap",
            "locator": {
                "latitude": -7.698299,
                "longitude": 109.023521
            },
            "popular": false,
            "timezone": 7
        },
        "timezone": 7,
        "popular": false,
        "precedence": 0
    },
    {
        "id": "5a977e80b2b78c6734f17fdc",
        "code": "JRL",
        "name": "Jeruklegi",
        "type": "STATION",
        "locator": {
            "latitude": -7.622884,
            "longitude": 109.018027
        },
        "city": {
            "code": "Cilacap",
            "name": "Cilacap",
            "locator": {
                "latitude": -7.698299,
                "longitude": 109.023521
            },
            "popular": false,
            "timezone": 7
        },
        "timezone": 7,
        "popular": false,
        "precedence": 0
    },
    {
        "id": "5a977e80b2b78c6734f17fdd",
        "code": "KWG",
        "name": "Kawunganten",
        "type": "STATION",
        "locator": {
            "latitude": -7.590806348179,
            "longitude": 108.919277026371
        },
        "city": {
            "code": "Cilacap",
            "name": "Cilacap",
            "locator": {
                "latitude": -7.698299,
                "longitude": 109.023521
            },
            "popular": false,
            "timezone": 7
        },
        "timezone": 7,
        "popular": false,
        "precedence": 0
    },
    {
        "id": "5a977e80b2b78c6734f17fde",
        "code": "KYA",
        "name": "Kroya",
        "type": "STATION",
        "locator": {
            "latitude": -7.630252587615,
            "longitude": 109.253526984707
        },
        "city": {
            "code": "Cilacap",
            "name": "Cilacap",
            "locator": {
                "latitude": -7.698299,
                "longitude": 109.023521
            },
            "popular": false,
            "timezone": 7
        },
        "timezone": 7,
        "popular": false,
        "precedence": 0
    },
    {
        "id": "5a977e80b2b78c6734f17fdf",
        "code": "LBG",
        "name": "Lebeng",
        "type": "STATION",
        "locator": {
            "latitude": -7.621307731879,
            "longitude": 109.076464131282
        },
        "city": {
            "code": "Cilacap",
            "name": "Cilacap",
            "locator": {
                "latitude": -7.698299,
                "longitude": 109.023521
            },
            "popular": false,
            "timezone": 7
        },
        "timezone": 7,
        "popular": false,
        "precedence": 0
    },
    {
        "id": "5a977e80b2b78c6734f17fe0",
        "code": "MA",
        "name": "Maos",
        "type": "STATION",
        "locator": {
            "latitude": -7.61903,
            "longitude": 109.139396
        },
        "city": {
            "code": "Cilacap",
            "name": "Cilacap",
            "locator": {
                "latitude": -7.698299,
                "longitude": 109.023521
            },
            "popular": false,
            "timezone": 7
        },
        "timezone": 7,
        "popular": false,
        "precedence": 0
    },
    {
        "id": "5a977e80b2b78c6734f17fe1",
        "code": "MLW",
        "name": "Meluwung",
        "type": "STATION",
        "locator": {
            "latitude": -7.394083809838,
            "longitude": 108.699626871154
        },
        "city": {
            "code": "Cilacap",
            "name": "Cilacap",
            "locator": {
                "latitude": -7.698299,
                "longitude": 109.023521
            },
            "popular": false,
            "timezone": 7
        },
        "timezone": 7,
        "popular": false,
        "precedence": 0
    },
    {
        "id": "5a977e80b2b78c6734f17fe2",
        "code": "GM",
        "name": "Gumilir",
        "type": "STATION",
        "locator": {
            "latitude": -7.6851609,
            "longitude": 109.0424019
        },
        "city": {
            "code": "Cilacap",
            "name": "Cilacap",
            "locator": {
                "latitude": -7.698299,
                "longitude": 109.023521
            },
            "popular": false,
            "timezone": 7
        },
        "timezone": 7,
        "popular": false,
        "precedence": 0
    },
    {
        "id": "5a977e80b2b78c6734f17fe3",
        "code": "SDR",
        "name": "Sidareja",
        "type": "STATION",
        "locator": {
            "latitude": -7.486782,
            "longitude": 108.807239
        },
        "city": {
            "code": "Cilacap",
            "name": "Cilacap",
            "locator": {
                "latitude": -7.698299,
                "longitude": 109.023521
            },
            "popular": false,
            "timezone": 7
        },
        "timezone": 7,
        "popular": false,
        "precedence": 0
    },
    {
        "id": "5a977e80b2b78c6734f17fe4",
        "code": "SKP",
        "name": "Sikampuh",
        "type": "STATION",
        "locator": {
            "latitude": -7.6872571,
            "longitude": 109.0645969
        },
        "city": {
            "code": "Cilacap",
            "name": "Cilacap",
            "locator": {
                "latitude": -7.698299,
                "longitude": 109.023521
            },
            "popular": false,
            "timezone": 7
        },
        "timezone": 7,
        "popular": false,
        "precedence": 0
    },
    {
        "id": "5a977e80b2b78c6734f17fe5",
        "code": "CLG",
        "name": "Cilegon",
        "type": "STATION",
        "locator": {
            "latitude": -6.019535,
            "longitude": 106.052681
        },
        "city": {
            "code": "Cilegon",
            "name": "Cilegon",
            "locator": {
                "latitude": -6.002534,
                "longitude": 106.01112
            },
            "popular": false,
            "timezone": 7
        },
        "timezone": 7,
        "popular": false,
        "precedence": 0
    },
    {
        "id": "5a977e80b2b78c6734f17fe6",
        "code": "MER",
        "name": "Merak",
        "type": "STATION",
        "locator": {
            "latitude": -5.930154659832,
            "longitude": 105.99685182763
        },
        "city": {
            "code": "Cilegon",
            "name": "Cilegon",
            "locator": {
                "latitude": -6.002534,
                "longitude": 106.01112
            },
            "popular": false,
            "timezone": 7
        },
        "timezone": 7,
        "popular": false,
        "precedence": 0
    },
    {
        "id": "5a977e80b2b78c6734f17fe7",
        "code": "AWN",
        "name": "Arjawinangun",
        "type": "STATION",
        "locator": {
            "latitude": -6.644662565847,
            "longitude": 108.414538177909
        },
        "city": {
            "code": "Cirebon",
            "name": "Cirebon",
            "locator": {
                "latitude": -6.732023,
                "longitude": 108.552316
            },
            "popular": false,
            "timezone": 7
        },
        "timezone": 7,
        "popular": true,
        "precedence": 0
    },
    {
        "id": "5a977e80b2b78c6734f17fe8",
        "code": "CLD",
        "name": "Ciledug",
        "type": "STATION",
        "locator": {
            "latitude": -6.903085889654,
            "longitude": 108.743934874834
        },
        "city": {
            "code": "Cirebon",
            "name": "Cirebon",
            "locator": {
                "latitude": -6.732023,
                "longitude": 108.552316
            },
            "popular": false,
            "timezone": 7
        },
        "timezone": 7,
        "popular": false,
        "precedence": 0
    },
    {
        "id": "5a977e80b2b78c6734f17fe9",
        "code": "CN",
        "name": "Cirebon",
        "type": "STATION",
        "locator": {
            "latitude": -6.705427176273,
            "longitude": 108.555330081597
        },
        "city": {
            "code": "Cirebon",
            "name": "Cirebon",
            "locator": {
                "latitude": -6.732023,
                "longitude": 108.552316
            },
            "popular": false,
            "timezone": 7
        },
        "timezone": 7,
        "popular": false,
        "precedence": 0
    },
    {
        "id": "5a977e80b2b78c6734f17fea",
        "code": "CNP",
        "name": "Cirebonprujakan",
        "type": "STATION",
        "locator": {
            "latitude": -6.719386344859,
            "longitude": 108.558711055225
        },
        "city": {
            "code": "Cirebon",
            "name": "Cirebon",
            "locator": {
                "latitude": -6.732023,
                "longitude": 108.552316
            },
            "popular": false,
            "timezone": 7
        },
        "timezone": 7,
        "popular": false,
        "precedence": 0
    },
    {
        "id": "5a977e80b2b78c6734f17feb",
        "code": "KRW",
        "name": "Karangsuwung",
        "type": "STATION",
        "locator": {
            "latitude": -6.857850424529,
            "longitude": 108.647750830688
        },
        "city": {
            "code": "Cirebon",
            "name": "Cirebon",
            "locator": {
                "latitude": -6.732023,
                "longitude": 108.552316
            },
            "popular": false,
            "timezone": 7
        },
        "timezone": 7,
        "popular": false,
        "precedence": 0
    },
    {
        "id": "5a977e80b2b78c6734f17fec",
        "code": "LOS",
        "name": "Losari",
        "type": "STATION",
        "locator": {
            "latitude": -6.846383982212,
            "longitude": 108.798259304863
        },
        "city": {
            "code": "Cirebon",
            "name": "Cirebon",
            "locator": {
                "latitude": -6.732023,
                "longitude": 108.552316
            },
            "popular": false,
            "timezone": 7
        },
        "timezone": 7,
        "popular": false,
        "precedence": 0
    },
    {
        "id": "5a977e80b2b78c6734f17fed",
        "code": "LWG",
        "name": "Luwung",
        "type": "STATION",
        "locator": {
            "latitude": -6.777589891954,
            "longitude": 108.593009804893
        },
        "city": {
            "code": "Cirebon",
            "name": "Cirebon",
            "locator": {
                "latitude": -6.732023,
                "longitude": 108.552316
            },
            "popular": false,
            "timezone": 7
        },
        "timezone": 7,
        "popular": false,
        "precedence": 0
    },
    {
        "id": "5a977e80b2b78c6734f17fee",
        "code": "BBK",
        "name": "Babakan",
        "type": "STATION",
        "locator": {
            "latitude": -6.860797,
            "longitude": 108.719836
        },
        "city": {
            "code": "Cirebon",
            "name": "Cirebon",
            "locator": {
                "latitude": -6.732023,
                "longitude": 108.552316
            },
            "popular": false,
            "timezone": 7
        },
        "timezone": 7,
        "popular": false,
        "precedence": 0
    },
    {
        "id": "5a977e80b2b78c6734f17fef",
        "code": "SDU",
        "name": "Sindanglaut",
        "type": "STATION",
        "locator": {
            "latitude": -6.8327468,
            "longitude": 108.6259749
        },
        "city": {
            "code": "Cirebon",
            "name": "Cirebon",
            "locator": {
                "latitude": -6.732023,
                "longitude": 108.552316
            },
            "popular": false,
            "timezone": 7
        },
        "timezone": 7,
        "popular": false,
        "precedence": 0
    },
    {
        "id": "5a977e80b2b78c6734f17ff0",
        "code": "WDW",
        "name": "Waruduwur",
        "type": "STATION",
        "locator": {
            "latitude": -6.7854722,
            "longitude": 108.6253792
        },
        "city": {
            "code": "Cirebon",
            "name": "Cirebon",
            "locator": {
                "latitude": -6.732023,
                "longitude": 108.552316
            },
            "popular": false,
            "timezone": 7
        },
        "timezone": 7,
        "popular": false,
        "precedence": 0
    },
    {
        "id": "5a977e80b2b78c6734f17ff1",
        "code": "LBP",
        "name": "Lubukpakam",
        "type": "STATION",
        "locator": {
            "latitude": 3.5638814,
            "longitude": 98.8785957
        },
        "city": {
            "code": "Deli Serdang",
            "name": "Deli Serdang",
            "locator": {
                "latitude": 3.42018,
                "longitude": 98.704075
            },
            "popular": false,
            "timezone": 7
        },
        "timezone": 7,
        "popular": false,
        "precedence": 0
    },
    {
        "id": "5a977e80b2b78c6734f17ff2",
        "code": "BBG",
        "name": "Brumbung",
        "type": "STATION",
        "locator": {
            "latitude": -7.025717,
            "longitude": 110.522047
        },
        "city": {
            "code": "Demak",
            "name": "Demak",
            "locator": {
                "latitude": -6.892161,
                "longitude": 110.63775
            },
            "popular": false,
            "timezone": 7
        },
        "timezone": 7,
        "popular": false,
        "precedence": 0
    },
    {
        "id": "5a977e80b2b78c6734f17ff3",
        "code": "DEN",
        "name": "Denpasar",
        "type": "STATION",
        "locator": {
            "latitude": 8.6705,
            "longitude": 115.2126
        },
        "city": {
            "code": "Denpasar",
            "name": "Denpasar",
            "locator": {
                "latitude": -8.670458,
                "longitude": 115.212629
            },
            "popular": false,
            "timezone": 7
        },
        "timezone": 7,
        "popular": false,
        "precedence": 0
    },
    {
        "id": "5a977e80b2b78c6734f17ff4",
        "code": "CPD",
        "name": "Cipeundeuy",
        "type": "STATION",
        "locator": {
            "latitude": -7.094568023749,
            "longitude": 108.103182955047
        },
        "city": {
            "code": "Garut",
            "name": "Garut",
            "locator": {
                "latitude": -7.251216,
                "longitude": 107.923556
            },
            "popular": false,
            "timezone": 7
        },
        "timezone": 7,
        "popular": false,
        "precedence": 0
    },
    {
        "id": "5a977e80b2b78c6734f17ff5",
        "code": "LBJ",
        "name": "Lebakjero",
        "type": "STATION",
        "locator": {
            "latitude": -7.053602586982,
            "longitude": 107.894006468751
        },
        "city": {
            "code": "Garut",
            "name": "Garut",
            "locator": {
                "latitude": -7.251216,
                "longitude": 107.923556
            },
            "popular": false,
            "timezone": 7
        },
        "timezone": 7,
        "popular": false,
        "precedence": 0
    },
    {
        "id": "5a977e80b2b78c6734f17ff6",
        "code": "LL",
        "name": "Leles",
        "type": "STATION",
        "locator": {
            "latitude": -7.085024914489,
            "longitude": 107.900124235039
        },
        "city": {
            "code": "Garut",
            "name": "Garut",
            "locator": {
                "latitude": -7.251216,
                "longitude": 107.923556
            },
            "popular": false,
            "timezone": 7
        },
        "timezone": 7,
        "popular": false,
        "precedence": 0
    },
    {
        "id": "5a977e80b2b78c6734f17ff7",
        "code": "NG",
        "name": "Nagreg",
        "type": "STATION",
        "locator": {
            "latitude": -7.0187303675,
            "longitude": 107.887291544982
        },
        "city": {
            "code": "Garut",
            "name": "Garut",
            "locator": {
                "latitude": -7.251216,
                "longitude": 107.923556
            },
            "popular": false,
            "timezone": 7
        },
        "timezone": 7,
        "popular": false,
        "precedence": 0
    },
    {
        "id": "5a977e80b2b78c6734f17ff8",
        "code": "WB",
        "name": "Warungbandrek",
        "type": "STATION",
        "locator": {
            "latitude": -7.064903898733,
            "longitude": 108.007259386577
        },
        "city": {
            "code": "Garut",
            "name": "Garut",
            "locator": {
                "latitude": -7.251216,
                "longitude": 107.923556
            },
            "popular": false,
            "timezone": 7
        },
        "timezone": 7,
        "popular": false,
        "precedence": 0
    },
    {
        "id": "5a977e80b2b78c6734f17ff9",
        "code": "CB",
        "name": "Cibatu",
        "type": "STATION",
        "locator": {
            "latitude": -7.1001147,
            "longitude": 107.9794667
        },
        "city": {
            "code": "Garut",
            "name": "Garut",
            "locator": {
                "latitude": -7.251216,
                "longitude": 107.923556
            },
            "popular": false,
            "timezone": 7
        },
        "timezone": 7,
        "popular": false,
        "precedence": 0
    },
    {
        "id": "5a977e80b2b78c6734f17ffa",
        "code": "GB",
        "name": "Gombong",
        "type": "STATION",
        "locator": {
            "latitude": -7.610922642163,
            "longitude": 109.507770205609
        },
        "city": {
            "code": "Gombong",
            "name": "Gombong",
            "locator": {
                "latitude": -7.605282,
                "longitude": 109.515156
            },
            "popular": false,
            "timezone": 7
        },
        "timezone": 7,
        "popular": false,
        "precedence": 0
    },
    {
        "id": "5a977e80b2b78c6734f17ffb",
        "code": "IJ",
        "name": "Ijo",
        "type": "STATION",
        "locator": {
            "latitude": -7.615309511852,
            "longitude": 109.4463734957
        },
        "city": {
            "code": "Gombong",
            "name": "Gombong",
            "locator": {
                "latitude": -7.605282,
                "longitude": 109.515156
            },
            "popular": false,
            "timezone": 7
        },
        "timezone": 7,
        "popular": false,
        "precedence": 0
    },
    {
        "id": "5a977e80b2b78c6734f17ffc",
        "code": "GD",
        "name": "Gundih",
        "type": "STATION",
        "locator": {
            "latitude": -7.218755493439,
            "longitude": 110.89993682209
        },
        "city": {
            "code": "Grobogan",
            "name": "Grobogan",
            "locator": {
                "latitude": -7.154167,
                "longitude": 110.950664
            },
            "popular": false,
            "timezone": 7
        },
        "timezone": 7,
        "popular": false,
        "precedence": 0
    },
    {
        "id": "5a977e80b2b78c6734f17ffd",
        "code": "KEJ",
        "name": "Kedungjati",
        "type": "STATION",
        "locator": {
            "latitude": -7.163535273997,
            "longitude": 110.635640953373
        },
        "city": {
            "code": "Grobogan",
            "name": "Grobogan",
            "locator": {
                "latitude": -7.154167,
                "longitude": 110.950664
            },
            "popular": false,
            "timezone": 7
        },
        "timezone": 7,
        "popular": false,
        "precedence": 0
    },
    {
        "id": "5a977e80b2b78c6734f17ffe",
        "code": "KGT",
        "name": "Karangjati",
        "type": "STATION",
        "locator": {
            "latitude": -7.100169,
            "longitude": 110.77725
        },
        "city": {
            "code": "Grobogan",
            "name": "Grobogan",
            "locator": {
                "latitude": -7.154167,
                "longitude": 110.950664
            },
            "popular": false,
            "timezone": 7
        },
        "timezone": 7,
        "popular": false,
        "precedence": 0
    },
    {
        "id": "5a977e80b2b78c6734f17fff",
        "code": "NBO",
        "name": "Ngrombo",
        "type": "STATION",
        "locator": {
            "latitude": -7.145417502727,
            "longitude": 110.900776606151
        },
        "city": {
            "code": "Grobogan",
            "name": "Grobogan",
            "locator": {
                "latitude": -7.154167,
                "longitude": 110.950664
            },
            "popular": false,
            "timezone": 7
        },
        "timezone": 7,
        "popular": false,
        "precedence": 0
    },
    {
        "id": "5a977e80b2b78c6734f18000",
        "code": "CLH",
        "name": "Cilegeh",
        "type": "STATION",
        "locator": {
            "latitude": -6.463904963799,
            "longitude": 108.035592991401
        },
        "city": {
            "code": "Indramayu",
            "name": "Indramayu",
            "locator": {
                "latitude": -6.33731,
                "longitude": 108.325833
            },
            "popular": false,
            "timezone": 7
        },
        "timezone": 7,
        "popular": false,
        "precedence": 0
    },
    {
        "id": "5a977e80b2b78c6734f18001",
        "code": "HGL",
        "name": "Haurgeulis",
        "type": "STATION",
        "locator": {
            "latitude": -6.458579206065,
            "longitude": 107.940903813491
        },
        "city": {
            "code": "Indramayu",
            "name": "Indramayu",
            "locator": {
                "latitude": -6.33731,
                "longitude": 108.325833
            },
            "popular": false,
            "timezone": 7
        },
        "timezone": 7,
        "popular": false,
        "precedence": 0
    },
    {
        "id": "5a977e80b2b78c6734f18002",
        "code": "JTB",
        "name": "Jatibarang",
        "type": "STATION",
        "locator": {
            "latitude": -6.473090841262,
            "longitude": 108.306331901206
        },
        "city": {
            "code": "Indramayu",
            "name": "Indramayu",
            "locator": {
                "latitude": -6.33731,
                "longitude": 108.325833
            },
            "popular": false,
            "timezone": 7
        },
        "timezone": 7,
        "popular": false,
        "precedence": 0
    },
    {
        "id": "5a977e80b2b78c6734f18003",
        "code": "KAB",
        "name": "Kadokangabus",
        "type": "STATION",
        "locator": {
            "latitude": -6.467784013761,
            "longitude": 108.106883597553
        },
        "city": {
            "code": "Indramayu",
            "name": "Indramayu",
            "locator": {
                "latitude": -6.33731,
                "longitude": 108.325833
            },
            "popular": false,
            "timezone": 7
        },
        "timezone": 7,
        "popular": false,
        "precedence": 0
    },
    {
        "id": "5a977e80b2b78c6734f18004",
        "code": "KTM",
        "name": "Kertasemaya",
        "type": "STATION",
        "locator": {
            "latitude": -6.52908282964,
            "longitude": 108.353560381614
        },
        "city": {
            "code": "Indramayu",
            "name": "Indramayu",
            "locator": {
                "latitude": -6.33731,
                "longitude": 108.325833
            },
            "popular": false,
            "timezone": 7
        },
        "timezone": 7,
        "popular": false,
        "precedence": 0
    },
    {
        "id": "5a977e80b2b78c6734f18005",
        "code": "TIS",
        "name": "Terisi",
        "type": "STATION",
        "locator": {
            "latitude": -6.469668886928,
            "longitude": 108.160297489583
        },
        "city": {
            "code": "Indramayu",
            "name": "Indramayu",
            "locator": {
                "latitude": -6.33731,
                "longitude": 108.325833
            },
            "popular": false,
            "timezone": 7
        },
        "timezone": 7,
        "popular": false,
        "precedence": 0
    },
    {
        "id": "5a977e80b2b78c6734f18006",
        "code": "GMR",
        "name": "Gambir",
        "type": "STATION",
        "locator": {
            "latitude": -6.176667,
            "longitude": 106.830552
        },
        "city": {
            "code": "Jakarta",
            "name": "Jakarta",
            "locator": {
                "latitude": -6.174465,
                "longitude": 106.822745
            },
            "popular": true,
            "timezone": 7
        },
        "timezone": 7,
        "popular": true,
        "precedence": 0
    },
    {
        "id": "5a977e80b2b78c6734f18007",
        "code": "JAKK",
        "name": "Jakarta Kota",
        "type": "STATION",
        "locator": {
            "latitude": -6.137585005551,
            "longitude": 106.814679606151
        },
        "city": {
            "code": "Jakarta",
            "name": "Jakarta",
            "locator": {
                "latitude": -6.174465,
                "longitude": 106.822745
            },
            "popular": false,
            "timezone": 7
        },
        "timezone": 7,
        "popular": false,
        "precedence": 0
    },
    {
        "id": "5a977e80b2b78c6734f18008",
        "code": "JNG",
        "name": "Jatinegara",
        "type": "STATION",
        "locator": {
            "latitude": -6.215046,
            "longitude": 106.870189
        },
        "city": {
            "code": "Jakarta",
            "name": "Jakarta",
            "locator": {
                "latitude": -6.174465,
                "longitude": 106.822745
            },
            "popular": false,
            "timezone": 7
        },
        "timezone": 7,
        "popular": false,
        "precedence": 0
    },
    {
        "id": "5a977e80b2b78c6734f18009",
        "code": "MRI",
        "name": "Manggarai",
        "type": "STATION",
        "locator": {
            "latitude": -6.210409649829,
            "longitude": 106.849942402446
        },
        "city": {
            "code": "Jakarta",
            "name": "Jakarta",
            "locator": {
                "latitude": -6.174465,
                "longitude": 106.822745
            },
            "popular": false,
            "timezone": 7
        },
        "timezone": 7,
        "popular": false,
        "precedence": 0
    },
    {
        "id": "5a977e80b2b78c6734f1800a",
        "code": "PSE",
        "name": "Pasar Senen",
        "type": "STATION",
        "locator": {
            "latitude": -6.17427,
            "longitude": 106.8441
        },
        "city": {
            "code": "Jakarta",
            "name": "Jakarta",
            "locator": {
                "latitude": -6.174465,
                "longitude": 106.822745
            },
            "popular": true,
            "timezone": 7
        },
        "timezone": 7,
        "popular": true,
        "precedence": 0
    },
    {
        "id": "5a977e80b2b78c6734f1800b",
        "code": "THB",
        "name": "Tanah Abang",
        "type": "STATION",
        "locator": {
            "latitude": -6.185717,
            "longitude": 106.810732
        },
        "city": {
            "code": "Jakarta",
            "name": "Jakarta",
            "locator": {
                "latitude": -6.174465,
                "longitude": 106.822745
            },
            "popular": false,
            "timezone": 7
        },
        "timezone": 7,
        "popular": false,
        "precedence": 0
    },
    {
        "id": "5a977e80b2b78c6734f1800c",
        "code": "TPK",
        "name": "Tanjung Priuk",
        "type": "STATION",
        "locator": {
            "latitude": -6.110872,
            "longitude": 106.881138
        },
        "city": {
            "code": "Jakarta",
            "name": "Jakarta",
            "locator": {
                "latitude": -6.174465,
                "longitude": 106.822745
            },
            "popular": false,
            "timezone": 7
        },
        "timezone": 7,
        "popular": false,
        "precedence": 0
    },
    {
        "id": "5a977e80b2b78c6734f1800d",
        "code": "BDW",
        "name": "Bangoduwa",
        "type": "STATION",
        "locator": {
            "latitude": -6.662976332046,
            "longitude": 108.460100930059
        },
        "city": {
            "code": "Jatibarang",
            "name": "Jatibarang",
            "locator": {
                "latitude": -6.435871,
                "longitude": 108.314866
            },
            "popular": false,
            "timezone": 7
        },
        "timezone": 7,
        "popular": false,
        "precedence": 0
    },
    {
        "id": "5a977e80b2b78c6734f1800e",
        "code": "JR",
        "name": "Jember",
        "type": "STATION",
        "locator": {
            "latitude": -8.165266,
            "longitude": 113.70298
        },
        "city": {
            "code": "Jember",
            "name": "Jember",
            "locator": {
                "latitude": -8.173312,
                "longitude": 113.700931
            },
            "popular": false,
            "timezone": 7
        },
        "timezone": 7,
        "popular": false,
        "precedence": 0
    },
    {
        "id": "5a977e80b2b78c6734f1800f",
        "code": "JTR",
        "name": "Jatiroto",
        "type": "STATION",
        "locator": {
            "latitude": -8.123178,
            "longitude": 113.36412
        },
        "city": {
            "code": "Jember",
            "name": "Jember",
            "locator": {
                "latitude": -8.173312,
                "longitude": 113.700931
            },
            "popular": false,
            "timezone": 7
        },
        "timezone": 7,
        "popular": false,
        "precedence": 0
    },
    {
        "id": "5a977e80b2b78c6734f18010",
        "code": "KLT",
        "name": "Kalisat",
        "type": "STATION",
        "locator": {
            "latitude": -8.126681,
            "longitude": 113.81224
        },
        "city": {
            "code": "Jember",
            "name": "Jember",
            "locator": {
                "latitude": -8.173312,
                "longitude": 113.700931
            },
            "popular": false,
            "timezone": 7
        },
        "timezone": 7,
        "popular": false,
        "precedence": 0
    },
    {
        "id": "5a977e80b2b78c6734f18011",
        "code": "RBP",
        "name": "Rambipuji",
        "type": "STATION",
        "locator": {
            "latitude": -8.203193,
            "longitude": 113.614344
        },
        "city": {
            "code": "Jember",
            "name": "Jember",
            "locator": {
                "latitude": -8.173312,
                "longitude": 113.700931
            },
            "popular": false,
            "timezone": 7
        },
        "timezone": 7,
        "popular": false,
        "precedence": 0
    },
    {
        "id": "5a977e80b2b78c6734f18012",
        "code": "TGL",
        "name": "Tanggul",
        "type": "STATION",
        "locator": {
            "latitude": -8.162731,
            "longitude": 113.448281
        },